filename,date,time,DOY,daytime,file_records,used_records,Tau,qc_Tau,H,qc_H,LE,qc_LE,co2_flux,qc_co2_flux,h2o_flux,qc_h2o_flux,ch4_flux,qc_ch4_flux,H_strg,LE_strg,co2_strg,h2o_strg,ch4_strg,co2_v-adv,h2o_v-adv,ch4_v-adv,co2_molar_density,co2_mole_fraction,co2_mixing_ratio,co2_time_lag,co2_def_timelag,h2o_molar_density,h2o_mole_fraction,h2o_mixing_ratio,h2o_time_lag,h2o_def_timelag,ch4_molar_density,ch4_mole_fraction,ch4_mixing_ratio,ch4_time_lag,ch4_def_timelag,sonic_temperature,air_temperature,air_pressure,air_density,air_heat_capacity,air_molar_volume,ET,water_vapor_density,e,es,specific_humidity,RH,VPD,Tdew,u_unrot,v_unrot,w_unrot,u_rot,v_rot,w_rot,wind_speed,max_wind_speed,wind_dir,yaw,pitch,roll,u*,TKE,L,(z-d)/L,bowen_ratio,T*,model,x_peak,x_offset,x_10%,x_30%,x_50%,x_70%,x_90%,un_Tau,Tau_scf,un_H,H_scf,un_LE,LE_scf,un_co2_flux,co2_scf,un_h2o_flux,h2o_scf,un_ch4_flux,ch4_scf,spikes_hf,amplitude_resolution_hf,drop_out_hf,absolute_limits_hf,skewness_kurtosis_hf,skewness_kurtosis_sf,discontinuities_hf,discontinuities_sf,timelag_hf,timelag_sf,attack_angle_hf,non_steady_wind_hf,u_spikes,v_spikes,w_spikes,ts_spikes,co2_spikes,h2o_spikes,ch4_spikes,not_ready_LI-7700,no_signal_LI-7700,re_unlocked_LI-7700,bad_temp_LI-7700,laser_temp_unregulated_LI-7700,block_temp_unregulated_LI-7700,motor_spinning_LI-7700,pump_on_LI-7700,top_heater_on_LI-7700,bottom_heater_on_LI-7700,calibrating_LI-7700,motor_failure_LI-7700,bad_aux_tc1_LI-7700,bad_aux_tc2_LI-7700,bad_aux_tc3_LI-7700,box_connected_LI-7700,u_var,v_var,w_var,ts_var,co2_var,h2o_var,ch4_var,w/ts_cov,w/co2_cov,w/h2o_cov,w/ch4_cov,7200_signal_strength_mean,co2_mean,h2o_mean,7700_signal_strength_mean,airtemp
TOA5_TroutBog_ts_data_2020_03_23_1530.dat,2020-03-23,16:00:00,83.666,1,18000,18000,0.0162,2,-3.271848748,0,9.302610703,0,0.52024543,0,0.207210912,0,0.000876,1,1.707368612,-9999,-9999,-9999,-9999,-9999,-9999,6.55E-13,-9999,420.3667329,422.51572,0.1,0,-9999,5.086170615,5.112171994,1.6,0,0.0908,2.031393868,2.041778703,-1.3,0,275.1081532,276.850038,96023.88257,1.206024693,1007.952508,0.024,0.0134,0.00382,488.5248564,794.1406558,0.00317,61.51616251,305.6157994,270.1088473,0.136626045,0.231823371,-0.0164,0.269588835,6.01E-14,7.21E-15,0.269588835,4.23396297,81.51314389,59.48685611,-3.490429257,-9999,0.115840214,0.474691906,40.21724848,0.0373,-0.35171296,-0.0232,1,0.906109027,1,1,2,3,6,23,0.0159,1.017740435,-2.756057461,1.028954733,7.543067337,1.233266294,0.421843549,1.233266294,0.16801798,1.233266294,0.000908,1.553642717,800000009,800000009,800000009,800000009,800001009,810111109,899999999,899999999,89999,89999,89,89,9,12,5,16,9,0,0,0,0,0,0,0,0,0,0,18000,18000,0,0,18000,18000,18000,0,0.585003781,0.319253592,0.0451,0.0226,0.219721214,0.0151,1.13E-08,-0.00227,0.0102,0.00405,9.08E-07,0,17.51831904,211.9573351,37.66107055,3.700038
TOA5_TroutBog_ts_data_2020_03_23_1600.dat,2020-03-23,16:30:00,83.687,1,18000,18000,0.013,0,-6.506643588,0,8.866001015,0,0.507458999,0,0.19746078,0,-0.000253,0,-0.134213673,-0.142027259,0.00369,-0.00316,-6.99E-05,-9999,-9999,3.25E-13,-9999,420.4728232,422.5837272,1.2,0,-9999,4.995232638,5.020310256,2.4,0,0.0908,2.029383241,2.039571375,0.8,0,275.0848475,276.7176182,96030.13994,1.206722023,1007.900867,0.024,0.0128,0.00376,479.8215618,786.7598938,0.00311,60.98703881,306.938332,269.8678024,0.112848905,-0.0445,0.0236,0.123569502,-3.71E-14,3.58E-15,0.123569502,2.694294118,162.5086507,338.4913493,11.00854239,-9999,0.103868605,0.183067596,14.57928821,0.102885681,-0.733887079,-0.0515,1,0.173470587,1,1,2,-9999,-9999,-9999,0.0127,1.026344318,-5.883310508,1.039001736,6.8446515,1.295318106,0.391763998,1.295318106,0.152441921,1.295318106,0.000788,1.704192661,800000009,800000009,800000009,800000009,800010009,800011009,899999999,899999999,89999,89999,89,89,3,3,1,45,31,8,0,0,0,0,0,0,0,0,0,18000,18000,0,0,18000,18000,18000,0,0.149949109,0.189437297,0.0267,0.015,0.168251141,0.00711,1.02E-08,-0.00484,0.00943,0.00367,7.88E-07,0,17.53971157,208.3835718,38.56486583,3.5676182
TOA5_TroutBog_ts_data_2020_03_24_0700.dat,2020-03-24,7:30:00,84.312,1,16994,16994,0.0151,1,-3.475457739,2,-13.61567895,2,-5.889401597,1,-0.301282474,2,-0.0015,1,-9999,-9999,-9999,-9999,-9999,-9999,-9999,2.55E-13,-9999,437.4648883,439.0703474,0.3,1,-9999,3.656496331,3.669915363,0.3,1,0.0949,2.053968155,2.061506044,1.1,0,267.939908,269.8723831,96084.50043,1.2386585,1007.079526,0.0234,-0.0195,0.00282,351.4268645,478.7226999,0.00228,73.40927527,127.2958353,265.7681845,0.130530293,0.167637786,-0.000722,0.212464364,2.06E-14,2.69E-15,0.212464364,1.456175346,88.90592353,52.09407647,-0.194728965,-9999,0.110554619,0.125782301,32.9155217,0.0456,0.25525409,-0.0252,1,0.593393114,1,1,1,2,6,319,0.0148,1.020086801,-3.968122171,1.032050795,-10.86114276,1.253613846,-4.697939174,1.253613846,-0.240331163,1.253613846,0.000352,1.603095196,800000009,800000009,800000009,800000009,800001009,800001009,899999999,899999999,89999,89999,89,89,0,0,1,0,2,0,0,0,0,0,0,0,0,0,0,16994,16994,0,0,16994,16994,16994,0,0.0813,0.167199743,0.00307,0.127883415,119.6382159,1.141416044,6.66E-08,-0.00318,-0.110106727,-0.00563,3.52E-07,0,18.84493839,157.3391681,19.56484637,-3.2776169
TOA5_TroutBog_ts_data_2020_03_24_0830.dat,2020-03-24,9:00:00,84.374,1,18000,18000,0.00453,1,2.338141427,1,-0.897387332,0,-0.0179,2,-0.02,0,0.000405,1,1.857306621,0.139513461,-0.0756,0.0031,-3.26E-05,-9999,-9999,1.27E-13,-9999,427.8722808,430.039632,0.3,1,-9999,5.039887116,5.065416242,0.3,1,0.0925,2.052211872,2.062607179,0,1,271.8588811,275.1133196,96005.56005,1.213427712,1007.901061,0.0238,-0.00129,0.00381,483.9869748,702.0400666,0.00314,68.94007875,218.0530918,269.9836467,0.219703481,0.371474648,-0.0128,0.431770824,-3.93E-14,1.37E-15,0.431770824,1.398764071,81.60159824,59.39840176,-1.694496404,-9999,0.0611,0.0902,-8.246732083,-0.181890231,-2.605498589,0.0313,1,7.07018138,3,6,10,15,26,66,0.00444,1.018833013,2.238857183,1.026473097,-0.76019345,1.180472329,-0.0152,1.180472329,-0.0169,1.180472329,-0.000228,1.381793239,800000009,800000009,800000009,800000009,800000009,810110009,899999999,899999999,89999,89999,89,89,2,8,1,12,12,13,0,0,0,0,0,0,0,0,0,18000,18000,0,0,18000,18000,18000,0,0.0855,0.0861,0.00875,0.0949,0.203760566,0.00635,2.40E-08,0.00183,-0.000364,-0.000405,-2.28E-07,0,18.0523431,212.6393286,26.86025084,1.9633196
TOA5_TroutBog_ts_data_2020_03_26_0700.dat,2020-03-26,7:30:00,86.312,1,16992,16992,0.0187,0,2.438388081,0,-6.143272924,1,5.682825403,0,-0.136447289,1,-0.00752,1,-9999,-9999,-9999,-9999,-9999,-9999,-9999,-7.48E-13,-9999,419.4525354,421.7320171,0.3,1,-9999,5.405047698,5.434421002,0.3,1,0.0918,2.025445366,2.036452489,0.9,0,272.4475211,273.8378375,95363.73091,1.210762141,1008.082302,0.0239,-0.00884,0.00408,515.583777,640.5540437,0.00337,80.49028525,124.9702668,270.8346713,-0.0669,-0.343869767,0.031,0.351685223,-7.36E-15,-8.15E-15,0.351685223,3.16430232,242.0070634,258.9929366,5.060728956,-9999,0.12420199,0.287100222,-66.18729702,-0.0227,-0.396920031,0.0161,1,1.540576781,1,1,2,4,7,22,0.0183,1.02131317,2.084020878,1.02813571,-5.194606049,1.182625374,4.805262534,1.182625374,-0.115376595,1.182625374,-0.00617,1.385793658,800000009,800000009,800000009,800000009,800001109,800101109,899999999,899999999,89999,89999,89,89,21,6,1,13,13,1,0,0,0,0,0,0,0,0,0,16992,16992,0,0,16992,16992,16992,0,0.258111807,0.272326421,0.0438,0.00273,37.41401293,0.0204,3.79E-08,0.00171,0.115343133,-0.00277,-6.17E-06,0,17.62098231,227.0822537,21.6918206,0.6878375
TOA5_TroutBog_ts_data_2020_03_26_0730.dat,2020-03-26,8:00:00,86.333,1,18000,18000,0.0281,0,1.986613642,0,1.644761386,0,0.549368649,1,0.0365,0,-0.00394,1,0.136214916,-0.326099127,0.0711,-0.00724,-0.000156,-9999,-9999,2.35E-13,-9999,421.4886276,423.6907755,0.5,0,-9999,5.19753573,5.224691249,0.3,1,0.0915,2.020980909,2.03153991,-0.3,0,272.5257021,273.9717549,95416.57384,1.210936105,1007.970737,0.0239,0.00237,0.00392,496.06408,646.7773704,0.00324,76.69781021,150.7132904,270.3145922,-0.024,-0.219781406,0.00798,0.221236416,6.61E-15,2.57E-15,0.221236416,3.032567435,237.2427639,263.7572361,2.066985423,-9999,0.152429734,0.290285835,-150.2260773,-0.00998,1.20784307,0.0107,1,0.373953953,1,1,1,3,20,-9999,0.0273,1.02886395,2.003538288,1.033231504,1.382136201,1.190013969,0.461648907,1.190013969,0.0307,1.190013969,-0.00362,1.398184157,800000009,800000009,800000009,800000009,800000009,800000009,899999999,899999999,89999,89999,89,89,5,19,0,30,6,0,0,0,0,0,0,0,0,0,0,18000,18000,0,0,18000,18000,18000,0,0.225955171,0.316271701,0.0383,0.00716,0.294238726,0.00517,2.58E-08,0.00164,0.0111,0.000737,-3.62E-06,0,17.66259735,217.8048355,23.04706209,0.8217549
TOA5_TroutBog_ts_data_2020_03_26_0800.dat,2020-03-26,8:30:00,86.354,1,18000,18000,0.0307,0,5.530442037,0,4.257143443,1,-0.148614729,2,0.0946,1,-0.00322,0,0.568937004,-0.279781949,-0.0549,-0.00622,7.08E-05,-9999,-9999,-6.75E-14,-9999,419.9117171,422.0299084,0.3,1,-9999,5.01905495,5.044372935,4,0,0.0914,2.023014441,2.03321928,-1.3,0,272.7521496,274.5321996,95425.40975,1.208657669,1007.881152,0.0239,0.00613,0.00378,479.0738471,673.4070713,0.00313,71.14179039,194.3332241,269.8469133,-0.113640418,0.208391968,-0.0234,0.238518238,2.41E-14,-7.39E-16,0.238518238,2.552266148,22.39545856,118.6045414,-5.640575674,-9999,0.159317995,0.309197947,-61.61746138,-0.0243,1.299096944,0.0285,1,0.404983732,1,1,1,2,11,-9999,0.0299,1.027427,5.567607114,1.032260056,3.58177421,1.188557177,-0.12503793,1.188557177,0.0796,1.188557177,-0.00408,1.395799211,800000009,800000009,800000009,800000009,800010009,800010009,899999999,899999999,89999,89999,89,89,3,4,2,30,25,0,0,0,0,0,0,0,0,0,0,18000,18000,0,0,18000,18000,18000,0,0.26469165,0.306245283,0.0475,0.0137,0.115054613,0.00925,2.11E-08,0.00457,-0.00301,0.00191,-4.08E-06,0,17.5519477,209.8059134,24.9555486,1.3821996
TOA5_TroutBog_ts_data_2020_03_26_0830.dat,2020-03-26,9:00:00,86.374,1,18000,18000,0.0344,0,6.578641761,0,0.791459296,1,0.0218,2,0.0176,1,-0.00275,0,0.778642179,-0.189033641,-0.00309,-0.0042,7.53E-05,-9999,-9999,1.43E-13,-9999,419.8228516,421.889275,0.3,1,-9999,4.898023036,4.922131751,0.3,1,0.0912,2.025180931,2.035149139,-0.9,0,273.1497517,275.3014754,95412.98467,1.205178635,1007.826266,0.024,0.00114,0.00368,467.4603545,711.5390983,0.00305,65.69707211,244.0787438,269.5186933,-0.139849246,0.275292234,-0.0208,0.309478342,-2.24E-14,1.57E-15,0.309478342,3.487410081,24.06929955,116.9307004,-3.856326882,-9999,0.169045239,0.382084422,-61.87249478,-0.0242,8.312040551,0.032,1,0.631095082,1,1,1,2,5,62,0.0337,1.023104359,6.43874693,1.02934149,0.668292071,1.184301491,0.0184,1.184301491,0.0149,1.184301491,-0.00382,1.388707243,800000009,800000009,800000009,800000009,800000009,800100009,899999999,899999999,89999,89999,89,89,2,5,2,29,14,0,0,0,0,0,0,0,0,0,0,18000,18000,0,0,18000,18000,18000,0,0.32709581,0.379816664,0.0573,0.0514,0.112827143,0.00616,4.00E-08,0.0053,0.000444,0.000358,-3.82E-06,0,17.47966251,203.9326647,28.55423925,2.1514754
TOA5_TroutBog_ts_data_2020_03_26_0900.dat,2020-03-26,9:30:00,86.395,1,18000,18000,0.0394,0,2.216173741,1,7.337146585,0,0.160934717,1,0.163332359,0,-0.000814,0,0.9202164,-0.0486,-0.018,-0.00108,3.88E-05,-9999,-9999,-1.68E-13,-9999,419.3020719,421.3526935,1.2,0,-9999,4.86675794,4.890559107,0.9,0,0.0908,2.026303254,2.03621301,-1.2,0,273.7892835,276.2138931,95385.23611,1.200862451,1007.822902,0.0241,0.0106,0.00364,464.3413764,759.2346822,0.00303,61.15913661,294.8933057,269.4293127,-0.365721574,-0.0984,-0.0507,0.382112589,-3.55E-14,-1.85E-15,0.382112589,3.770428301,305.9363874,195.0636126,-7.622865289,-9999,0.181215984,0.51956449,-226.2164759,-0.00663,0.302048448,0.0101,1,0.838094338,1,1,1,2,5,19,0.0387,1.020254412,2.511412694,1.027424683,6.209102636,1.181675842,0.136191933,1.181675842,0.138220951,1.181675842,-0.00156,1.38408005,800000009,800000009,800000009,800000009,800000009,800010109,899999999,899999999,89999,89999,89,89,23,8,4,36,25,4,0,0,0,0,0,0,0,0,0,18000,18000,0,0,18000,18000,18000,0,0.298520413,0.682928551,0.0577,0.0722,0.0431,0.00749,1.61E-08,0.00208,0.00329,0.00334,-1.56E-06,0,17.39704945,201.9280359,36.87216801,3.0638931
TOA5_TroutBog_ts_data_2020_03_26_0930.dat,2020-03-26,10:00:00,86.416,1,18000,18000,0.0403,1,2.044419866,1,4.746605114,1,0.142598765,0,0.105757917,1,0.000365,0,0.936694741,-0.118301022,-0.00661,-0.00264,0.000184,-9999,-9999,5.07E-13,-9999,419.1106597,421.1280262,0.5,0,-9999,4.79038765,4.813445922,0.8,0,0.0907,2.031638145,2.041417326,-1.4,0,274.3648296,277.1453258,95431.70158,1.197444239,1007.795833,0.0241,0.00685,0.00358,457.2774716,810.820181,0.00299,56.39690307,353.5427094,269.2248958,0.0821,0.212921906,-0.00919,0.228375427,2.93E-14,5.59E-15,0.228375427,2.670734859,72.07843853,68.92156147,-2.306755662,-9999,0.183457693,0.506984503,-254.5236491,-0.00589,0.430712018,0.00923,1,0.261839493,1,1,1,5,-9999,-9999,0.0392,1.028245991,2.208781389,1.03281382,3.990805145,1.189385335,0.119892822,1.189385335,0.0889,1.189385335,-0.000465,1.397155118,800000009,800000009,800000009,800000009,800010109,800110119,899999999,899999999,89999,89999,89,89,1,0,1,37,11,1,0,0,0,0,0,0,0,0,0,18000,18000,0,0,18000,18000,18000,0,0.660240673,0.308731661,0.045,0.0499,0.0657,0.0104,1.53E-08,0.00183,0.00291,0.00216,-4.65E-07,0,17.32742673,198.0487026,38.93701841,3.9953258
TOA5_TroutBog_ts_data_2020_03_26_1030.dat,2020-03-26,11:00:00,86.458,1,18000,18000,0.0398,1,-0.296826695,2,6.027924659,1,0.120694811,2,0.134537196,1,-0.000519,1,0.876005565,0.0188,-0.000462,0.000421,9.35E-05,-9999,-9999,-2.18E-14,-9999,418.6022857,420.6136162,1.1,0,-9999,4.781895789,4.804872187,0.9,0,0.0904,2.041069782,2.050876862,0,1,275.1905647,278.9459896,95394.77196,1.189257884,1007.820779,0.0243,0.00872,0.00354,456.2902205,919.4010515,0.00298,49.62907316,463.110831,269.1961036,0.12718849,0.393579575,0.0154,0.413906126,-3.31E-14,-2.42E-16,0.413906126,2.703411046,68.90866711,72.09133289,2.129237641,-9999,0.182914463,0.417077467,1737.095768,0.000864,-0.0492,-0.00135,1,0.955614895,1,1,2,3,5,19,0.0392,1.014184737,-0.00455,1.024190476,5.014766712,1.202034911,0.10040874,1.202034911,0.111924533,1.202034911,-0.000596,1.477456117,800000009,800000009,800000009,800000009,800010019,800110019,899999999,899999999,89999,89999,89,89,13,1,7,45,7,0,1,0,0,0,0,0,0,0,0,18000,0,0,0,18000,18000,18000,0,0.607615771,0.195609736,0.0309,0.141632807,0.199924201,0.0268,3.27E-08,-3.79E-06,0.00245,0.00273,-5.96E-07,0,17.1654737,196.0993878,41.61074207,5.7959896
TOA5_TroutBog_ts_data_2020_03_26_1100.dat,2020-03-26,11:30:00,86.479,1,18000,18000,0.0049,0,9.576643314,0,2.245226891,1,0.0309,2,0.0501,1,0.00281,1,0.73760213,0.573951248,0.0104,0.0128,0.000269,-9999,-9999,7.26E-14,-9999,418.9073962,421.078862,0.6,0,-9999,5.156909885,5.183641457,2.5,0,0.0904,2.048929675,2.059550592,0,1,275.0806803,279.6864757,95383.08039,1.185795407,1008.037632,0.0244,0.00325,0.00381,492.0138923,967.6533643,0.00321,50.84608915,475.6394721,270.2044104,0.0589,0.990850992,-0.0553,0.994139694,4.01E-14,8.04E-16,0.994139694,2.418312808,54.40075315,86.59924685,-3.190367931,-9999,0.0643,0.0923,-2.338458952,-0.641448078,4.265334319,0.124605693,1,15.57324651,7,12,20,30,48,108,0.00484,1.012608058,9.488994353,1.022593741,1.904277111,1.179044205,0.0262,1.179044205,0.0425,1.179044205,-0.000347,1.372200596,800000009,800000009,800000009,800000019,800100019,810110019,899999999,899999999,89999,89999,89,89,26,9,9,34,4,0,1,0,16,0,0,0,0,0,0,18000,0,0,0,18000,18000,18000,0,0.106680758,0.0647,0.0133,0.104579285,0.481155519,0.0606,1.14E-08,0.00794,0.000642,0.00104,-3.47E-07,0,17.12323827,210.7533073,41.69945713,6.5364757
TOA5_TroutBog_ts_data_2020_03_26_1130.dat,2020-03-26,12:00:00,86.499,1,18000,18000,0.0113,0,19.33359588,0,10.27420366,0,0.147136266,0,0.229548584,0,0.00429,0,0.348647905,-0.504991531,-0.017,-0.0113,-0.000114,-9999,-9999,-5.10E-14,-9999,418.4082986,420.4374713,0.6,0,-9999,4.826336416,4.849742906,1.6,0,0.0901,2.045584751,2.055505312,-1.4,0,275.9166879,280.0370405,95356.27802,1.184126465,1007.863832,0.0244,0.0149,0.00356,460.3449266,991.2668261,0.00301,46.4400618,530.9218995,269.3140044,0.01,0.721375207,-0.0479,0.723031523,-9.97E-15,-5.66E-16,0.723031523,1.960399592,51.79802625,89.20197375,-3.79608915,-9999,0.0977,0.0783,-4.057098655,-0.369722338,1.881761013,0.16589228,1,6.713752288,3,5,9,14,23,54,0.0111,1.014359256,19.41626887,1.023565103,8.721544724,1.17802568,0.124900729,1.17802568,0.194858726,1.17802568,-0.00207,1.374726769,800000009,800000009,800000009,800000009,800000019,800000019,899999999,899999999,89999,89999,89,89,20,10,2,24,27,0,0,0,0,0,0,0,0,0,0,18000,0,0,0,18000,18000,18000,0,0.0926,0.0459,0.0182,0.258541748,0.12413897,0.041,3.05E-08,0.0163,0.00306,0.00478,-2.07E-06,0,17.04877904,196.6695948,42.62939129,6.8870405
TOA5_TroutBog_ts_data_2020_03_26_1200.dat,2020-03-26,12:30:00,86.52,1,18000,18000,0.0172,0,34.38713773,0,10.50446766,0,0.220501314,0,0.234774442,0,0.00822,0,0.3602046,-0.418520629,-0.0129,-0.00935,-0.000193,-9999,-9999,1.15E-13,-9999,418.030073,419.9416062,1.1,0,-9999,4.551902438,4.572716999,1.1,0,0.0897,2.039925363,2.049253365,0,1,276.6366652,280.3997289,95350.85998,1.182650577,1007.721133,0.0244,0.0152,0.00335,434.1442353,1016.230689,0.00284,42.72103176,582.0864534,268.5352503,-0.0334,0.610774305,-0.0502,0.613742979,-2.61E-14,1.28E-15,0.613742979,2.111230725,47.8718002,93.1281998,-4.692521758,-9999,0.120658127,0.164663948,-4.302376435,-0.348644528,3.273572622,0.23913472,1,3.811058225,2,3,5,8,14,33,0.017,1.015541348,34.13095297,1.024307441,8.914825214,1.178314482,0.187132822,1.178314482,0.199245996,1.178314482,-0.00279,1.376555045,800000009,800000009,800000009,800000009,800000019,800000119,899999999,899999999,89999,89999,89,89,11,8,0,26,58,1,0,0,0,0,0,0,0,0,0,18000,0,0,0,18000,18000,18000,0,0.158587841,0.132794399,0.0379,0.207281785,0.0612,0.0142,4.68E-08,0.0286,0.0046,0.00489,-2.79E-06,0,16.98404155,184.9372073,43.36356067,7.2497289
TOA5_TroutBog_ts_data_2020_03_26_1230.dat,2020-03-26,13:00:00,86.541,1,17988,17988,0.029,0,25.58458832,0,17.35201474,0,0.213357498,0,0.387998307,0,-0.00271,0,0.485624384,-0.0169,0.00337,-0.000378,-0.000125,-9999,-9999,2.19E-13,-9999,418.12906,420.0363586,0.9,0,-9999,4.540793981,4.561506843,0.8,0,0.0894,2.036235954,2.045524258,-1,0,277.0285694,280.8896863,95324.90978,1.180271337,1007.72395,0.0245,0.0251,0.00334,432.9668842,1050.834588,0.00283,41.20219198,617.8677034,268.4992857,0.00962,0.540517546,-0.0159,0.540835958,3.79E-14,2.45E-15,0.540835958,2.967579861,52.02000978,88.97999022,-1.680980607,-9999,0.156767647,0.280883525,-12.68072919,-0.118289727,1.474444824,0.13721404,1,2.215448611,1,2,3,5,9,25,0.0285,1.016599015,25.84244933,1.024993461,14.7193025,1.178861209,0.180986105,1.178861209,0.329129761,1.178861209,-0.00943,1.378225991,800000009,800000009,800000009,800000009,800000009,800010119,899999999,899999999,89999,89999,89,89,11,6,0,34,29,0,0,0,0,0,0,0,0,0,0,17988,0,0,0,17988,17988,17988,0,0.336142872,0.182965147,0.0427,0.251147417,0.075,0.0279,5.01E-08,0.0217,0.00445,0.0081,-9.43E-06,0,16.93543687,183.9139198,43.88389569,7.7396863
TOA5_TroutBog_ts_data_2020_03_26_1330.dat,2020-03-26,14:00:00,86.583,1,18000,18000,0.0198,0,15.54431708,1,-0.266763083,2,-0.294472252,1,-0.00597,2,-0.0059,1,0.175954168,-0.20473586,-0.00689,-0.00458,-0.000199,-9999,-9999,-2.85E-13,-9999,417.9312074,419.7610764,0.4,0,-9999,4.359310872,4.378397669,0.3,1,0.0888,2.02974496,2.038631991,0,1,277.6576293,281.5014236,95231.62452,1.176634833,1007.63671,0.0246,-0.000387,0.0032,415.2556142,1095.495411,0.00272,37.90573743,680.2397971,267.9475063,0.254127248,0.449743632,0.00696,0.516622131,-4.00E-15,-3.21E-15,0.516622131,2.351276716,80.46858197,60.53141803,0.771854018,-9999,0.129597627,0.275364212,-11.78315251,-0.127300398,-58.27012086,0.10116468,1,2.862490701,1,2,4,7,12,32,0.0194,1.017015564,15.16923916,1.025267023,-0.226238362,1.179124004,-0.249738154,1.179124004,-0.00506,1.179124004,-0.00848,1.378887101,800000009,800000009,800000009,800000009,800010019,800010119,899999999,899999999,89999,89999,89,89,1,1,1,50,3,2,0,0,0,0,0,0,0,0,0,18000,0,0,0,18000,18000,18000,0,0.284072073,0.239313219,0.0273,0.260416261,0.227231344,0.0281,6.69E-08,0.0128,-0.00616,-0.000125,-8.48E-06,0,16.86702899,175.9436067,44.09920053,8.3514236
TOA5_TroutBog_ts_data_2020_03_26_1400.dat,2020-03-26,14:30:00,86.604,1,18000,18000,0.0068,1,-5.110009636,1,18.13577397,0,0.385309296,1,0.406020866,0,0.00177,0,0.661318761,0.145285419,0.00139,0.00325,6.06E-05,-9999,-9999,-1.70E-13,-9999,417.9723435,419.8429459,0.3,1,-9999,4.455481223,4.475421379,1.3,0,0.0886,2.031536801,2.040628785,1.3,0,277.7589841,282.1724668,95213.60021,1.173571722,1007.701517,0.0246,0.0263,0.00326,424.3362011,1146.402997,0.00278,37.01457536,722.0667954,268.2329598,0.288951128,0.684776629,-0.0275,0.743754127,-1.44E-14,-1.92E-15,0.743754127,1.973077468,73.87799695,67.12200305,-2.122004967,-9999,0.0761,0.109450553,7.267123422,0.206409044,-0.281764078,-0.0568,1,10.23014977,4,10,20,40,90,425,0.00668,1.019159005,-4.149730173,1.039491825,13.40573774,1.352836698,0.284815822,1.352836698,0.300125556,1.352836698,0.0013,1.835554804,800000009,800000009,800000009,800000009,800000009,800000019,899999999,899999999,89999,89999,89,89,14,2,3,22,15,0,0,0,0,0,0,0,0,0,0,18000,0,0,0,18000,18000,18000,0,0.147646282,0.0528,0.0185,0.276196559,0.201832086,0.0398,3.88E-08,-0.00351,0.00705,0.00743,1.30E-06,0,16.83931936,179.4974933,44.42640866,9.0224668
TOA5_TroutBog_ts_data_2020_03_26_1500.dat,2020-03-26,15:30:00,86.645,1,18000,18000,0.005,1,-6.004364918,0,15.77716934,0,0.0682,2,0.353304882,0,0.00443,0,0.172469529,-0.05,-0.00402,-0.00112,-2.47E-05,-9999,-9999,-8.42E-13,-9999,418.0185701,419.8755643,0.3,1,-9999,4.42272505,4.442372441,1.6,0,0.0885,2.030663843,2.039684808,-0.1,0,277.7500769,282.4332309,95204.31533,1.1723884,1007.688728,0.0247,0.0229,0.00323,421.1754558,1166.740933,0.00276,36.09845544,745.5654771,268.1342208,0.237234447,0.823799878,-0.0311,0.857840875,2.87E-14,-9.52E-15,0.857840875,1.871214247,67.06512132,73.93487868,-2.074780078,-9999,0.0653,0.0669,3.899633252,0.384651556,-0.380573016,-0.0778,1,17.05928362,7,16,36,71,168,871,0.00487,1.026030492,-5.09256398,1.053796431,10.63247579,1.483866001,0.046,1.483866001,0.238097566,1.483866001,0.00267,2.148776246,800000009,800000009,800000009,800000009,800000009,800100009,899999999,899999999,89999,89999,89,89,7,20,12,15,12,0,0,0,0,0,0,0,0,0,0,18000,0,0,0,18000,18000,18000,0,0.0666,0.0571,0.01,0.467230806,0.192116212,0.0603,5.29E-08,-0.00431,0.00114,0.0059,2.67E-06,0,16.84710456,178.2557542,43.91036839,9.2832309
TOA5_TroutBog_ts_data_2020_03_26_1600.dat,2020-03-26,16:30:00,86.687,1,18000,18000,0.0108,1,-7.797719927,1,7.491167864,1,1.119910249,1,0.167572463,1,0.00118,1,-0.409643929,0.0163,0.0226,0.000364,-0.000242,-9999,-9999,-2.35E-13,-9999,418.8705116,420.9101354,0.3,1,-9999,4.845746569,4.869342167,0.5,0,0.0886,2.024000581,2.033856132,1.4,0,277.3306485,281.3072278,95196.43423,1.176795158,1007.897259,0.0246,0.0109,0.00355,461.4215328,1081.139927,0.00302,42.67916864,619.7183944,269.3451545,0.440560092,0.225718649,0.0103,0.495123645,2.48E-14,-2.65E-15,0.495123645,2.029571202,113.8719057,27.12809428,1.187670286,-9999,0.0959,0.114845357,9.524772472,0.157484077,-1.040921799,-0.0685,1,3.576304739,2,3,7,13,28,119,0.0106,1.019187404,-7.198059831,1.038283756,5.624938966,1.331777626,0.840913849,1.331777626,0.125826159,1.331777626,0.00192,1.792822681,800000009,800000009,800000009,800000009,800100009,811101009,899999999,899999999,89999,89999,89,89,0,4,4,6,3,0,0,0,0,0,0,0,0,0,0,18000,0,0,0,18000,18000,18000,0,0.0559,0.167608674,0.00621,0.574913043,0.836123544,0.078,6.11E-08,-0.00607,0.0208,0.00311,1.92E-06,0,16.97945028,196.4262091,43.46893725,8.1572278
TOA5_TroutBog_ts_data_2020_03_26_1630.dat,2020-03-26,17:00:00,86.708,1,18000,18000,0.04,1,-25.30124927,1,24.28213993,1,1.374426883,1,0.543011538,1,-0.000733,1,-0.312592874,-0.838041462,-0.00718,-0.0187,-0.000523,-9999,-9999,5.38E-13,-9999,418.6592624,420.4647409,1.2,0,-9999,4.294006993,4.312525006,0.3,1,0.0881,2.008612414,2.017274605,0,1,279.0115867,280.9913791,95222.09486,1.17868181,1007.591861,0.0245,0.0352,0.00315,408.9940201,1058.145628,0.00268,38.65195956,649.1516076,267.747422,0.155650565,-0.131687801,0.0308,0.206204345,-6.81E-14,6.10E-15,0.206204345,3.187819901,181.2328136,319.7671864,8.60304911,-9999,0.184236525,0.464408616,20.79637336,0.0721,-1.041969503,-0.115633854,1,0.160715377,1,1,2,-9999,-9999,-9999,0.0392,1.020700239,-23.4025705,1.033635314,19.16498422,1.267005475,1.084783697,1.267005475,0.428578683,1.267005475,0.00378,1.636023354,800000009,800000009,800000009,800000009,800000009,800111009,899999999,899999999,89999,89999,89,89,5,1,7,11,15,1,0,0,0,0,0,0,0,0,0,18000,0,0,0,18000,18000,18000,0,0.308428801,0.584517808,0.0359,0.690551299,1.908955973,0.154132831,8.48E-08,-0.0197,0.0267,0.0106,3.78E-06,0,17.00242772,174.3743901,42.37499199,7.8413791
TOA5_TroutBog_ts_data_2020_03_27_0700.dat,2020-03-27,7:30:00,87.312,1,16994,16994,0.0063,1,-1.197267002,1,-9999,-9999,29.53449369,2,-9999,-9999,0.00218,1,-9999,-9999,-9999,-9999,-9999,-9999,-9999,-8.54E-14,-9999,368.775944,368.775944,0.3,1,-9999,-9999,-9999,-9999,1,0.092,2.179203628,2.179203628,1.3,0,270.7676412,272.1800306,95517.42924,1.222598744,1005.145845,0.0237,-9999,-9999,-9999,-9999,-9999,-9999,-9999,-9999,-0.161103773,0.102527451,-0.00802,0.191129949,7.32E-15,-9.28E-16,0.191129949,1.248070181,353.4729309,147.5270691,-2.405513266,-9999,0.0718,0.0586,26.01719107,0.0577,-9999,-0.0136,1,1.139263038,1,1,2,3,7,25,0.00617,1.021088238,-1.159091411,1.032935789,-9999,1,23.48004685,1.257854973,-9999,1,0.00135,1.613216194,800000009,800000009,800000009,800000109,800100009,800100009,899999999,899999999,89999,89999,89,89,0,0,0,4,2,0,0,0,0,0,0,0,0,0,0,16994,16994,0,0,16994,16994,16994,0,0.0879,0.0246,0.00475,0.0358,4965.131905,-9999,4.92E-08,-0.000943,0.556266124,-9999,1.35E-06,0,15.66372062,54.52229552,16.42287954,-0.9699694
TOA5_TroutBog_ts_data_2020_03_27_0730.dat,2020-03-27,8:00:00,87.333,1,18000,18000,0.00939,1,15.69735369,1,6.112580535,1,-1.922635154,1,0.135870713,1,0.00232,1,2.511862826,-9999,2.186005742,-9999,-0.00494,-9999,-9999,-4.73E-13,-9999,431.5017171,433.8429443,0.3,1,-9999,5.396485463,5.425765528,0.3,1,0.092,2.037589539,2.048645023,-0.9,0,272.3311231,274.6535269,95495.23952,1.208834947,1008.089031,0.0239,0.0088,0.00407,515.476906,679.2982021,0.00336,75.8837436,163.8212961,270.8318717,-0.130973113,0.248783621,-0.00302,0.281169598,-5.84E-15,-5.14E-15,0.281169598,1.237654155,23.23526226,117.7647377,-0.614614712,-9999,0.0881,0.0623,-3.677577952,-0.407877146,2.568040388,0.146152276,1,1.662253538,1,1,2,4,6,14,0.00916,1.024585565,15.55090091,1.030340596,5.155107799,1.185732825,-1.621474174,1.185732825,0.114587966,1.185732825,-0.00245,1.391124565,800000009,800000009,800000009,800000009,800000009,800000009,899999999,899999999,89999,89999,89,89,0,3,1,14,3,0,0,0,0,0,0,0,0,0,0,18000,18000,0,0,18000,18000,18000,0,0.0715,0.0474,0.00572,0.326147219,4.979523126,0.0199,4.70E-08,0.0128,-0.039,0.00275,-2.45E-06,0,18.17845207,227.3214688,18.18331704,1.5035269
TOA5_TroutBog_ts_data_2020_03_27_0800.dat,2020-03-27,8:30:00,87.354,1,18000,18000,0.0116,0,13.0907442,0,-0.179918869,2,0.0915,2,-0.00401,2,-0.00324,0,2.044904905,0.718863686,-0.0655,0.016,0.000393,-9999,-9999,3.82E-13,-9999,429.6092139,432.1412173,0.3,1,-9999,5.859203728,5.89373633,0.3,1,0.0916,2.048935448,2.061011333,-1.3,0,274.19842,276.6815827,95507.96801,1.199923805,1008.37205,0.0241,-0.00026,0.00438,559.7507492,784.7618877,0.00365,71.32746353,225.0111384,271.9498443,-0.333985214,0.260891824,-0.00836,0.423887389,-1.21E-14,4.17E-15,0.423887389,1.96892545,358.9950969,142.0049031,-1.12976807,-9999,0.0983,0.108099489,-6.121852766,-0.245023861,-72.75915121,0.110046856,1,3.0685954,1,3,4,7,12,30,0.0114,1.019037456,12.76659589,1.026609639,-0.152391104,1.180638925,0.0775,1.180638925,-0.00339,1.180638925,-0.00582,1.382119929,800000009,800000009,800000009,800000009,800000009,800110009,899999999,899999999,89999,89999,89,89,8,19,4,20,21,3,0,0,0,0,0,0,0,0,0,18000,18000,0,0,18000,18000,18000,0,0.117101126,0.0818,0.0173,0.343942338,0.266509732,0.0129,5.27E-08,0.0106,0.00188,-8.22E-05,-5.82E-06,0,17.89472453,244.0394143,22.72840825,3.5315827
TOA5_TroutBog_ts_data_2020_03_27_0830.dat,2020-03-27,9:00:00,87.374,1,18000,18000,0.0152,0,4.144148886,2,-3.394444452,1,0.690397837,1,-0.0757,1,-0.00325,0,1.821651932,0.348552309,-0.023,0.00778,0.000464,-9999,-9999,5.01E-13,-9999,428.9400769,431.5663303,0.9,0,-9999,6.085399206,6.122658024,0.4,0,0.0915,2.062433401,2.075060975,-1.3,0,275.3397097,278.4997667,95519.05666,1.192126314,1008.524671,0.0242,-0.00491,0.00452,581.4275115,891.3611511,0.00379,65.22917347,309.9336396,272.4688842,-0.0739,0.194185407,-0.00454,0.207837685,-1.11E-14,5.48E-15,0.207837685,1.809467697,30.15331973,110.8466803,-1.252440443,-9999,0.112802952,0.124540537,-29.21467578,-0.0513,-1.22086219,0.0306,1,0.643777265,1,1,1,2,4,44,0.0147,1.030127668,3.852776403,1.034086844,-2.849347467,1.191305901,0.579530276,1.191305901,-0.0636,1.191305901,-0.00336,1.400284633,800000009,800000009,800000009,800000009,800000009,800110019,899999999,899999999,89999,89999,89,89,12,1,1,42,6,3,0,0,0,0,0,0,0,0,0,18000,18000,0,0,18000,18000,18000,0,0.105802088,0.124152926,0.0191,0.240278412,1.099423911,0.00704,4.12E-08,0.0032,0.0141,-0.00155,-3.36E-06,0,17.69447794,251.0216584,27.61824458,5.3497667
TOA5_TroutBog_ts_data_2020_03_27_0900.dat,2020-03-27,9:30:00,87.395,1,18000,18000,0.0101,1,18.46750322,0,-0.700884829,1,0.327038251,0,-0.0157,1,0.00127,0,1.044826064,0.38581006,-0.0949,0.00862,0.000331,-9999,-9999,3.67E-13,-9999,426.1702008,428.888005,0.6,0,-9999,6.336862138,6.377274045,0.3,1,0.0914,2.072082044,2.085296279,-1.3,0,275.7270567,279.5460333,95558.03199,1.188035877,1008.679823,0.0243,-0.00101,0.00469,605.7005041,958.3335998,0.00395,63.20351329,352.6330957,273.0301211,-0.173234064,0.674636261,-0.038,0.697558387,-3.40E-14,4.01E-15,0.697558387,2.518611432,36.59865242,104.4013476,-3.122319221,-9999,0.0923,0.164912474,-3.590464655,-0.417773225,-26.34884144,0.166999304,1,6.732611876,3,5,9,14,23,53,0.00997,1.014600555,18.04211908,1.023713646,-0.594955672,1.17804546,0.277610892,1.17804546,-0.0133,1.17804546,-0.0037,1.375093196,800000009,800000009,800000009,800000009,800000009,810111019,899999999,899999999,89999,89999,89,89,14,2,1,10,1,0,0,0,0,0,0,0,0,0,0,18000,18000,0,0,18000,18000,18000,0,0.203866171,0.108484036,0.0175,0.199500287,0.374297301,0.00609,4.34E-08,0.0151,0.0068,-0.000325,-3.70E-06,0,17.48424531,259.9759661,36.71564726,6.3960333
TOA5_TroutBog_ts_data_2020_03_27_0930.dat,2020-03-27,10:00:00,87.416,1,18000,18000,0.013,0,26.06470803,0,-0.0996,2,0.200799085,1,-0.00222,2,0.00622,1,0.0165,0.201975432,-0.0321,0.00451,-0.000228,-9999,-9999,9.87E-14,-9999,425.2347886,428.0033286,0.2,0,-9999,6.468501016,6.510614935,0.3,1,0.0911,2.065427559,2.078874762,0,1,275.959177,279.562511,95568.42378,1.188035761,1008.752233,0.0243,-0.000144,0.00479,618.3502678,959.4229389,0.00403,64.4502276,341.0726711,273.3147536,-0.300872748,0.608247668,-0.0244,0.679031532,6.39E-14,1.08E-15,0.679031532,3.219827193,24.68046915,116.3195309,-2.057250711,-9999,0.104780099,0.120614969,-3.724377719,-0.402751846,-261.6347479,0.207567826,1,5.40341127,2,4,7,11,18,44,0.0129,1.014788202,25.50568242,1.023830209,-0.0846,1.178077205,0.170446457,1.178077205,-0.00189,1.178077205,-0.00179,1.375382552,800000009,800000009,800000009,800000009,810000019,810111019,899999999,899999999,89999,89999,89,89,11,7,0,22,15,15,0,0,0,0,0,0,0,0,0,18000,18000,0,0,18000,18000,18000,0,0.0971,0.122195901,0.0219,0.164662107,0.155438261,0.000127,2.31E-08,0.0213,0.00417,-4.62E-05,-1.79E-06,0,17.42307722,265.0324013,39.27097123,6.412511
TOA5_TroutBog_ts_data_2020_03_28_0700.dat,2020-03-28,7:30:00,88.312,1,17003,17003,0.00431,0,-13.02341958,1,1.300989308,0,10.64887587,0,0.029,0,0.00881,1,-9999,-9999,-9999,-9999,-9999,-9999,-9999,7.36E-13,-9999,437.6521423,440.4152149,0.3,1,-9999,6.273790136,6.313399077,0.3,1,0.0907,2.027110128,2.039908083,0,1,275.1338025,276.522108,95349.27041,1.198432535,1008.596725,0.0241,0.00188,0.00469,598.3617733,775.9735196,0.00391,77.1111073,177.6117463,272.8625696,-0.207661827,-0.0387,-0.0209,0.212258134,1.09E-14,8.12E-15,0.212258134,1.38325783,310.452287,190.547713,-5.638796109,-9999,0.0599,0.0427,1.393633284,1.076323318,-10.01039709,-0.17972583,1,1.13865884,1,1,2,4,8,28,0.00408,1.056819396,-11.68327958,1.11331404,0.667701231,1.94846025,5.465277453,1.94846025,0.0149,1.94846025,0.00413,3.37069254,800000009,800000009,800000009,800000009,800101009,800111019,899999999,899999999,89999,89999,89,89,0,3,2,0,2,3,0,0,0,0,0,0,0,0,0,17003,17003,0,0,17003,17003,17003,0,0.0533,0.0244,0.00764,0.182359176,62.2999243,0.00455,1.75E-07,-0.00967,0.13260769,0.000361,4.13E-06,0,18.22716487,261.2970574,27.86183437,3.372108
TOA5_TroutBog_ts_data_2020_03_28_0730.dat,2020-03-28,8:00:00,88.333,1,18000,18000,0.00736,0,-7.946230769,1,-0.149147993,2,6.006491252,1,-0.00332,2,-0.00555,1,0.927275088,0.136854799,-0.0586,0.00305,-2.67E-05,-9999,-9999,4.03E-13,-9999,435.9505165,438.741947,0.3,1,-9999,6.362351445,6.403090155,0.3,1,0.0903,2.026336167,2.03931098,0,1,275.962734,277.4458964,95332.19463,1.194188219,1008.659472,0.0242,-0.000215,0.00474,606.6996233,828.1154438,0.00397,73.26268672,221.4158205,273.0527929,-0.143712043,-0.0331,-0.0092,0.14775043,-3.78E-14,4.46E-15,0.14775043,1.269748998,308.0485184,192.9514816,-3.571441788,-9999,0.0785,0.0694,5.127438132,0.292543754,53.27749053,-0.084,1,0.39480627,1,1,1,3,13,-9999,0.00714,1.030458028,-7.550314187,1.055394809,-0.103148591,1.445952782,4.15400235,1.445952782,-0.0023,1.445952782,-0.00155,2.082854423,800000009,800000009,800000009,800000009,800100009,800100019,899999999,899999999,89999,89999,89,89,0,16,12,30,9,0,0,0,0,0,0,0,0,0,0,18000,18000,0,0,18000,18000,18000,0,0.068,0.0609,0.01,0.112472545,37.59603422,0.00252,5.97E-08,-0.00627,0.101155192,-5.60E-05,-1.55E-06,0,18.03035845,263.1350595,29.06451357,4.2958964
TOA5_TroutBog_ts_data_2020_03_28_0830.dat,2020-03-28,9:00:00,88.374,1,18000,18000,0.0405,0,-14.57056518,1,-0.0465,2,1.055138001,1,-0.00104,2,0.00277,1,0.41219881,0.161641988,-0.0117,0.00361,-0.000148,-9999,-9999,4.45E-13,-9999,429.3264986,432.1567635,0.3,1,-9999,6.549162392,6.592336675,0.3,1,0.0899,2.030283972,2.043668288,0.4,0,277.3391677,278.6342856,95281.30176,1.188375997,1008.780893,0.0243,-6.73E-05,0.00485,624.1801029,899.7334568,0.00408,69.37389048,275.5533539,273.4441983,-0.232923095,-0.164202905,-0.0159,0.28542459,1.18E-14,4.95E-15,0.28542459,3.721240436,285.8174577,215.1825423,-3.184688812,-9999,0.184518797,0.336190783,36.30627188,0.0413,313.0530539,-0.0659,1,0.371732274,1,1,1,3,18,-9999,0.0398,1.017585465,-14.18322283,1.029610916,-0.0375,1.241046621,0.850200132,1.241046621,-0.000837,1.241046621,0.00511,1.572753509,800000009,800000009,800000009,800000009,800000009,801111019,899999999,899999999,89999,89999,89,89,14,35,6,32,58,19,0,0,0,0,0,0,0,0,0,18000,18000,0,0,18000,18000,18000,0,0.330674392,0.284446447,0.0573,0.128112607,1.665567754,0.000283,5.39E-08,-0.0118,0.0208,-2.05E-05,5.11E-06,0,17.62758468,268.8999172,29.81295118,5.4842856
TOA5_TroutBog_ts_data_2020_03_28_0900.dat,2020-03-28,9:30:00,88.395,1,18000,18000,0.0998,0,-25.64151331,1,1.624619425,2,0.212968753,2,0.0363,2,0.00331,1,0.767002087,-0.13020426,-0.106276544,-0.00291,-0.000168,-9999,-9999,6.27E-13,-9999,426.2160175,428.9890336,1.2,0,-9999,6.464072155,6.506128238,0.3,1,0.0894,2.025357202,2.038534436,0.3,0,278.1424634,279.4044788,95243.31217,1.184665875,1008.746989,0.0244,0.00235,0.00478,615.8247863,949.020299,0.00403,64.89058105,333.1955127,273.2583424,-0.427995005,0.0719,0.00572,0.434030144,5.43E-14,7.01E-15,0.434030144,4.778743673,330.5363048,170.4636952,0.755385145,-9999,0.290313811,0.624265654,80.32882269,0.0187,-15.78308921,-0.0739,0,37.4541347,-5.68380944,12.85679243,32.01523102,48.82524734,68.47810362,102.5926776,0.0984,1.014499101,-24.96825006,1.025921737,1.332506322,1.219220801,0.174676116,1.219220801,0.0298,1.219220801,0.00811,1.518951344,800000009,800000009,800000009,800000009,800000009,800111019,899999999,899999999,89999,89999,89,89,8,20,10,26,23,1,0,0,0,0,0,0,0,0,0,18000,18000,0,0,18000,18000,18000,0,0.636323169,0.511953106,0.100255033,0.166963029,2.171421597,0.00296,5.62E-08,-0.0209,0.00429,0.00073,8.11E-06,0,17.45256087,264.6900572,30.06148268,6.2544788
TOA5_TroutBog_ts_data_2020_03_28_1000.dat,2020-03-28,10:30:00,88.437,1,18000,18000,0.102742055,0,-30.27881856,0,0.286319431,0,0.125568579,2,0.0064,0,9.42E-05,0,0.207879656,-0.167140723,-0.0283,-0.00374,-6.64E-05,-9999,-9999,5.46E-13,-9999,422.9791908,425.5723108,0.3,1,-9999,6.093253573,6.130608928,0.9,0,0.0887,2.017634625,2.030003954,-1.1,0,278.9551384,280.3798224,95272.65367,1.181074514,1008.560769,0.0245,0.000415,0.00449,580.6761558,1014.84627,0.0038,57.21813963,434.1701142,272.4511825,0.163836066,0.591038236,-0.0298,0.614051551,-4.37E-14,6.15E-15,0.614051551,3.893253043,66.49339757,74.50660243,-2.786072316,-9999,0.294941222,0.573719735,71.3437347,0.021,-105.7518816,-0.0862,0,39.62152328,-6.012719019,13.60078679,33.86788217,51.65065725,72.4407812,108.5294907,0.101408621,1.013149118,-29.57659131,1.025259907,0.234384233,1.221581447,0.102791819,1.221581447,0.00524,1.221581447,0.00689,1.522078242,800000009,800000009,800000009,800000009,800001009,800101019,899999999,899999999,89999,89999,89,89,4,18,15,31,45,0,0,0,0,0,0,0,0,0,0,18000,18000,0,0,18000,18000,18000,0,0.466117663,0.591421073,0.0899,0.347599075,0.417207743,0.00471,5.73E-08,-0.0248,0.00253,0.000129,6.89E-06,0,17.25097365,248.5084245,31.05693931,7.2298224
TOA5_TroutBog_ts_data_2020_03_28_1030.dat,2020-03-28,11:00:00,88.458,1,18000,18000,0.107956736,0,-50.25594991,0,8.893350047,0,0.704511995,0,0.19879746,0,0.00786,0,0.183945557,-0.250566968,-0.0368,-0.0056,-0.000151,-9999,-9999,4.91E-13,-9999,421.8979203,424.4140928,0.3,1,-9999,5.928579025,5.963936695,0.1,0,0.0884,2.013197476,2.025204059,-1.2,0,279.0137306,280.5653843,95206.83674,1.179551604,1008.474001,0.0245,0.0129,0.00436,564.5926607,1027.816113,0.0037,54.93129109,463.2234519,272.0673075,0.497622762,0.998113138,0.0114,1.115342587,3.76E-14,5.55E-15,1.115342587,7.02969314,77.49916824,63.50083176,0.587606285,-9999,0.302528574,1.017583981,46.36342425,0.0324,-5.65095826,-0.139649516,0,32.25706911,-4.895134686,11.07280799,27.57285751,42.05034745,58.9762102,88.35710976,0.106652749,1.012226477,-48.67509109,1.025657878,7.186698603,1.237473635,0.569314751,1.237473635,0.160647835,1.237473635,0.0162,1.545337606,800000009,800000009,800000009,800000009,800001009,800101009,899999999,899999999,89999,89999,89,89,16,25,24,5,26,0,0,0,0,0,0,0,0,0,0,18000,18000,0,0,18000,18000,18000,0,1.079227494,0.797782619,0.158157849,0.753550431,1.844109751,0.0271,1.69E-07,-0.0409,0.014,0.00396,1.62E-05,0,17.18957164,241.5515461,31.01730508,7.4153843
TOA5_TroutBog_ts_data_2020_03_28_1100.dat,2020-03-28,11:30:00,88.479,1,18000,18000,0.0948,1,-13.42131596,0,-2.058351006,1,0.0713,0,-0.046,1,-0.00107,1,-0.361909433,-0.0517,-0.0598,-0.00115,-0.000357,-9999,-9999,4.04E-13,-9999,420.1410674,422.6323454,0.3,1,-9999,5.89466953,5.929622696,3.5,0,0.0881,2.002707463,2.014582763,-0.7,0,278.9369479,280.2006922,95187.85137,1.180866489,1008.449042,0.0245,-0.00298,0.00434,561.2514365,1002.463169,0.00368,55.9872376,441.2117329,271.9863465,0.673227199,0.898538944,0.05,1.123881488,-9.65E-14,4.59E-15,1.123881488,6.729674534,87.84225897,53.15774103,2.551131874,-9999,0.28329264,1.078872928,142.5304158,0.0105,6.520421406,-0.0398,0,31.95988981,-4.85003658,10.97079595,27.31883311,41.66294421,58.43287165,87.5430896,0.0937,1.01123039,-13.23633244,1.023447179,-1.691060301,1.21719551,0.0586,1.21719551,-0.0378,1.21719551,0.00239,1.49790427,800000009,800000009,800000009,800000009,800101009,801101009,899999999,899999999,89999,89999,89,89,16,27,21,20,61,2,0,0,0,0,0,0,0,0,0,18000,18000,0,0,18000,18000,18000,0,1.273060432,0.742754311,0.141931113,0.620754595,0.711298089,0.0129,9.61E-08,-0.0111,0.00144,-0.00093,2.39E-06,0,17.13731897,240.4345178,30.57392784,7.0506922
TOA5_TroutBog_ts_data_2020_03_28_1200.dat,2020-03-28,12:30:00,88.52,1,18000,18000,0.0268,0,-35.67490028,0,7.737935216,1,1.113104285,1,0.172935026,1,0.00757,1,0.159587792,0.0914,0.00319,0.00204,-4.66E-05,-9999,-9999,7.73E-14,-9999,419.7410202,422.2733042,0.3,1,-9999,5.99678924,6.032967676,2.8,0,0.0878,1.996152179,2.0081949,-0.1,0,279.3295886,280.354144,95201.64819,1.180345524,1008.507549,0.0245,0.0112,0.00441,571.0573586,1013.062901,0.00374,56.36938812,442.0055425,272.2227549,0.0349,0.37107765,-0.0371,0.374562345,-1.96E-14,8.81E-16,0.374562345,3.112590365,56.37568465,84.62431535,-5.68985405,-9999,0.15054303,0.357324896,8.047654114,0.18638972,-4.610390148,-0.199073661,1,0.830723798,1,1,2,3,6,31,0.0262,1.021540272,-33.96518598,1.042213296,5.695274334,1.358658909,0.819266909,1.358658909,0.127283621,1.358658909,0.0106,1.861965106,800000009,800000009,800000009,800000009,800001009,800101019,899999999,899999999,89999,89999,89,89,20,14,7,27,77,2,0,0,0,0,0,0,0,0,0,18000,18000,0,0,18000,18000,18000,0,0.329162637,0.323582043,0.0619,0.649828536,1.435361585,0.00837,1.16E-07,-0.0285,0.0202,0.00314,1.06E-05,0,17.12344101,244.6405052,30.98216343,7.204144
TOA5_TroutBog_ts_data_2020_03_28_1300.dat,2020-03-28,13:30:00,88.562,1,18000,18000,0.0251,1,28.73774162,1,-7.242940219,1,-1.745493251,1,-0.161802246,1,-0.000599,1,0.0749,-0.0166,0.0283,-0.000371,8.42E-05,-9999,-9999,-2.77E-13,-9999,421.0515753,423.6597666,0.3,1,-9999,6.156334639,6.194469868,0.3,1,0.0881,2.000057951,2.01244725,0,1,278.495583,279.8999573,95157.15777,1.181636884,1008.586877,0.0245,-0.0105,0.00454,585.9764463,981.9732651,0.00384,59.67336048,395.9968188,272.575625,0.110775705,0.219671254,0.0142,0.246431549,8.74E-15,-3.15E-15,0.246431549,2.076631149,77.76087185,63.23912815,3.304597447,-9999,0.145654619,0.174739423,-9.045513218,-0.16582807,-3.967690019,0.1655507,1,0.517986326,1,1,1,2,5,-9999,0.0244,1.026831535,27.55285238,1.031857329,-6.096962089,1.187958874,-1.469321278,1.187958874,-0.136201892,1.187958874,-0.00714,1.394817286,800000009,800000009,800000009,800000009,800100009,800100009,899999999,899999999,89999,89999,89,89,20,0,5,0,6,0,0,0,0,0,0,0,0,0,0,18000,18000,0,0,18000,18000,18000,0,0.176843373,0.15385554,0.0188,0.887484967,4.435857084,0.0112,1.45E-07,0.0231,-0.0362,-0.00335,-7.14E-06,0,17.20005108,251.4875869,31.17259665,6.7499573
TOA5_TroutBog_ts_data_2020_03_28_1330.dat,2020-03-28,14:00:00,88.583,1,18000,18000,0.035,1,28.76068116,1,-5.523266705,1,-1.154520869,1,-0.123358596,1,0.0034,1,-0.230973717,-0.0428,-0.0257,-0.000956,-0.000128,-9999,-9999,-1.67E-14,-9999,420.299442,422.891054,0.3,1,-9999,6.128320578,6.166108467,0.3,1,0.088,1.996318861,2.00862838,0,1,278.3843246,279.6676534,95186.32352,1.182993436,1008.567572,0.0244,-0.00799,0.00452,583.4887778,966.3996923,0.00382,60.37758316,382.9109145,272.5173432,0.209486914,0.191605115,0.023,0.284822957,3.42E-15,-1.90E-16,0.284822957,3.417795119,98.55271489,42.44728511,4.62225416,-9999,0.17188729,0.297373792,-14.85718442,-0.100961256,-5.207186742,0.140238761,1,0.506178786,1,1,1,2,5,-9999,0.0341,1.024379164,27.70303753,1.030201241,-4.658896558,1.185531088,-0.973842762,1.185531088,-0.104053447,1.185531088,-0.00414,1.390785262,800000009,800000009,800000009,800000009,800100009,810100019,899999999,899999999,89999,89999,89,89,7,15,8,0,1,0,0,0,0,0,0,0,0,0,0,18000,18000,0,0,18000,18000,18000,0,0.323026085,0.238716292,0.033,0.887836964,5.484807653,0.00819,1.44E-07,0.0232,-0.0239,-0.00256,-4.14E-06,0,17.18529346,250.5771374,30.95941898,6.5176534
TOA5_TroutBog_ts_data_2020_03_28_1400.dat,2020-03-28,14:30:00,88.604,1,18000,18000,0.0475,1,3.402111879,1,-0.576651169,1,-0.998886572,0,-0.0129,1,-0.000376,0,-0.524920543,0.198999332,0.0105,0.00444,2.42E-05,-9999,-9999,4.46E-13,-9999,420.6053489,423.2541965,0.4,0,-9999,6.258290304,6.297703159,0.3,1,0.0883,1.997025901,2.009602578,0,1,277.8772725,279.1407166,95187.30749,1.185180453,1008.629801,0.0244,-0.000834,0.00463,595.8695964,931.8795336,0.0039,63.94277103,336.0099372,272.8052562,0.393247941,0.38393785,0.0316,0.550501894,5.77E-14,5.05E-15,0.550501894,4.53834758,96.68632678,44.31367322,3.293282136,-9999,0.200284352,0.63446147,-198.7034758,-0.00755,-5.899774532,0.0142,0,36.55039912,-5.546664079,12.54656925,31.24273143,47.64713673,66.82578675,100.1172058,0.0468,1.016442758,3.297920991,1.024891323,-0.48919819,1.178767993,-0.847398791,1.178767993,-0.0109,1.178767993,-0.00111,1.377976445,800000009,800000009,800000009,800000009,800100009,801101009,899999999,899999999,89999,89999,89,89,1,32,21,13,6,0,0,0,0,0,0,0,0,0,0,18000,18000,0,0,18000,18000,18000,0,0.81658957,0.401612822,0.0507,0.818234912,4.589622464,0.0174,1.52E-07,0.00276,-0.0208,-0.000268,-1.11E-06,0,17.23711464,256.472275,29.75806134,5.9907166
TOA5_TroutBog_ts_data_2020_03_28_1600.dat,2020-03-28,16:30:00,88.687,1,18000,18000,0.161492105,0,-27.50180686,0,-2.804919291,0,-0.400979913,1,-0.0626,0,-0.000403,0,1.00632961,-0.00696,-0.00228,-0.000155,-9999,-9999,-9999,7.80E-13,-9999,416.6635063,419.6208317,0.3,1,-9999,7.047613452,7.097634838,1.9,0,0.0876,1.981898025,1.995964814,0,1,278.5078158,279.0931924,94921.28438,1.181715795,1009.061907,0.0244,-0.00406,0.0052,669.1479644,928.8203752,0.0044,72.04277407,259.6724108,274.4081727,0.0566,0.678813664,0.00122,0.681166581,2.01E-14,8.91E-15,0.681166581,7.241685925,55.76254402,85.23745598,0.10248444,-9999,0.369674188,1.522517728,154.2756531,0.00972,9.804847844,-0.0624,0,32.11445058,-4.873491775,11.02385166,27.45094934,41.8644298,58.71545805,87.96645551,0.15952006,1.012362362,-27.05397327,1.023900768,-2.315245449,1.211499754,-0.330978122,1.211499754,-0.0517,1.211499754,0.00609,1.496587367,800000009,800000009,800000009,800000009,800001009,800111109,899999999,899999999,89999,89999,89,89,40,30,10,18,77,0,0,0,0,0,0,0,0,0,0,18000,18000,0,0,18000,18000,18000,0,1.347065721,1.459184635,0.2387851,0.204880047,0.19571904,0.00251,3.68E-08,-0.0227,-0.00815,-0.00127,6.09E-06,0,17.02974122,288.0446125,25.80860498,5.9431924
TOA5_TroutBog_ts_data_2020_03_29_0800.dat,2020-03-29,8:30:00,89.354,1,18000,18000,0.114834629,0,-1.336212512,2,0.141997309,2,0.075,0,0.00316,2,0.000802,0,0.284170819,-0.0597,-0.00011,-0.00133,-9999,-9999,-9999,7.56E-13,-9999,418.1996607,421.1169073,0.5,0,-9999,6.927403068,6.975726739,0.3,1,0.0884,1.968406484,1.98213755,-0.2,0,275.7291581,275.3265872,93736.20971,1.182980832,1008.937558,0.0244,0.000205,0.00511,649.5226876,712.8154301,0.00432,91.120739,63.29274249,273.9947462,-0.296749352,-0.312265282,-0.0415,0.432768245,2.43E-14,8.55E-15,0.432768245,4.877659744,274.5405851,226.4594149,-5.496892177,-9999,0.311564223,0.742794023,1883.818166,0.000796,-9.410125581,-0.00359,0,38.07840071,-5.778544214,13.07108275,32.5488442,49.63904112,69.61946097,104.3026389,0.113253204,1.013963615,-1.300882806,1.024129557,0.118067559,1.202678456,0.0623,1.202678456,0.00263,1.202678456,0.000901,1.47889558,800000009,800000009,800000009,800000009,800000009,810100009,899999999,899999999,89999,89999,89,89,26,25,8,32,17,0,0,0,0,0,0,0,0,0,0,18000,18000,0,0,18000,18000,18000,0,0.6520743,0.722719139,0.110794608,0.00739,0.0589,0.00169,5.65E-08,-0.00109,0.00153,6.46E-05,9.01E-07,0,17.12970872,283.7503829,11.1862162,2.1765872
TOA5_TroutBog_ts_data_2020_03_29_0830.dat,2020-03-29,9:00:00,89.374,1,18000,18000,0.0673,0,-2.569834992,1,-1.370016413,1,-0.355897965,1,-0.0305,1,0.0041,0,-0.144061434,-0.0814,-0.00567,-0.00181,0.000184,-9999,-9999,4.23E-13,-9999,418.0337127,420.9273396,0.6,0,-9999,6.874409606,6.921994229,0.3,1,0.0887,1.97379673,1.98745934,0,1,275.693711,275.1818443,93750.48971,1.183807165,1008.90636,0.0244,-0.00197,0.00508,644.6521417,705.4864545,0.00429,91.37696941,60.8343128,273.8904318,-0.133221389,-0.378143297,-0.0129,0.401130392,-2.74E-14,4.77E-15,0.401130392,7.542526621,250.4075638,250.5924362,-1.836738609,-9999,0.238425565,0.639366505,439.0030402,0.00342,1.875769492,-0.00902,0,32.92304321,-4.996198825,11.30141535,28.14212215,42.91851195,60.19382325,90.18131598,0.0663,1.014455543,-2.578277108,1.024644699,-1.136580059,1.205384876,-0.295256703,1.205384876,-0.0253,1.205384876,0.00369,1.485640635,800000009,800000009,800000009,800000009,800010009,801110009,899999999,899999999,89999,89999,89,89,28,40,12,52,4,0,0,0,0,0,0,0,0,0,0,18000,18000,0,0,18000,18000,18000,0,0.624942331,0.560448933,0.0933,0.0104,0.0544,0.00041,4.98E-08,-0.00216,-0.00726,-0.000621,3.69E-06,0,17.13759178,281.8213467,12.45508508,2.0318443
TOA5_TroutBog_ts_data_2020_03_29_1000.dat,2020-03-29,10:30:00,89.437,1,18000,18000,0.28173065,1,-9.093282126,1,-1.096057079,2,0.87061229,0,-0.0244,2,-0.0206,0,0.0695,0.00926,-0.0206,0.000206,4.29E-07,-9999,-9999,6.70E-13,-9999,418.0987393,421.0531195,0.1,0,-9999,7.016644934,7.066226134,1.1,0,0.0888,1.981534299,1.995536268,-1.4,0,273.6648571,275.8785682,93830.18107,1.181757502,1008.994619,0.0244,-0.00158,0.00517,658.5496663,741.3870476,0.00438,88.82670239,82.83738127,274.1862628,0.0123,-0.21335439,-0.0671,0.223991241,-2.21E-14,7.55E-15,0.223991241,6.5936808,227.7116841,273.2883159,-17.43010624,-9999,0.488261932,0.860198974,1066.179372,0.00141,8.296358191,-0.0156,0,40.00428163,-6.070804074,13.73217535,34.19505825,52.14962141,73.14058552,109.5779251,0.276523427,1.018831038,-8.927059596,1.026814558,-0.908666696,1.206225654,0.721765689,1.206225654,-0.0202,1.206225654,-0.013,1.486951208,800000009,800000009,800000009,800000019,800000019,801100019,899999999,899999999,89999,89999,89,89,26,44,10,21,29,0,0,0,35,0,0,0,0,0,0,18000,18000,0,0,18000,18000,18000,0,0.730610292,0.749262918,0.240524738,0.04,0.0746,0.00164,1.44E-07,-0.00749,0.0178,-0.000498,-1.30E-05,0,17.10290033,287.0253194,13.49559963,2.7285682
TOA5_TroutBog_ts_data_2020_03_29_1130.dat,2020-03-29,12:00:00,89.499,1,18000,18000,0.110050421,0,-6.87264076,0,-1.870329444,0,0.0104,2,-0.0416,0,0.00295,0,1.279981229,-0.317743639,-0.0125,-0.00707,-9999,-9999,-9999,1.26E-13,-9999,417.8314228,420.6997249,0.3,1,-9999,6.817931998,6.864735296,0.3,1,0.0893,1.993260625,2.006943831,0.5,0,275.3788906,276.0478185,93946.40446,1.182584926,1008.88781,0.0244,-0.0027,0.00503,640.6920098,750.3484312,0.00425,85.38593315,109.6564213,273.8051005,-0.279360218,-0.882160304,-0.0446,0.926413293,1.92E-14,1.41E-15,0.926413293,5.751771316,248.5718169,252.4281831,-2.761863921,-9999,0.30505608,1.223036605,344.3327671,0.00436,3.674561604,-0.0189,0,29.23619472,-4.436705343,10.03583957,24.99065952,38.11233258,53.45308836,80.08246678,0.108820015,1.011306797,-6.821539814,1.022897029,-1.547513863,1.208602707,0.00862,1.208602707,-0.0344,1.208602707,0.00387,1.483803006,800000009,800000009,800000009,800000009,800000009,800100009,899999999,899999999,89999,89999,89,89,14,18,2,41,6,0,0,0,0,0,0,0,0,0,0,18000,18000,0,0,18000,18000,18000,0,1.044566694,1.195880781,0.205625734,0.00767,0.122544472,0.00902,9.84E-08,-0.00572,0.000212,-0.000847,3.87E-06,0,17.10064247,279.0398,15.26959028,2.8978185
TOA5_TroutBog_ts_data_2020_03_29_1200.dat,2020-03-29,12:30:00,89.52,1,18000,18000,0.0946,1,-6.313634243,0,-4.372365397,1,0.376180663,1,-0.0973,1,-0.00453,0,0.0777,-0.300201449,-0.0115,-0.00668,8.88E-05,-9999,-9999,2.66E-13,-9999,417.4938685,420.2769816,0.5,0,-9999,6.622092728,6.666237169,0.3,1,0.0894,1.995863941,2.009168844,-1.1,0,275.3083828,276.1259949,93998.36741,1.182991855,1008.781341,0.0244,-0.00631,0.00489,622.6328751,754.5199309,0.00413,82.52040134,131.8870557,273.4099486,-0.0957,-0.756362156,0.00508,0.76240884,-1.68E-14,2.97E-15,0.76240884,6.77294275,238.2108271,262.7891729,0.381777685,-9999,0.282743111,1.330765454,298.550286,0.00502,1.443985959,-0.0187,0,28.03594333,-4.254562564,9.623832104,23.96470269,36.54768368,51.25864602,76.79479228,0.0935,1.01183534,-6.389442407,1.023228914,-3.620258241,1.207749588,0.311472401,1.207749588,-0.0806,1.207749588,-0.00165,1.485899843,800000009,800000009,800000009,800000009,800000009,800100009,899999999,899999999,89999,89999,89,89,27,19,7,45,9,0,0,0,0,0,0,0,0,0,0,18000,18000,0,0,18000,18000,18000,0,1.298653926,1.166714324,0.196162659,0.0134,0.0475,0.00356,6.74E-08,-0.00535,0.00766,-0.00198,-1.65E-06,0,17.08243909,270.9531387,16.94581476,2.9759949
TOA5_TroutBog_ts_data_2020_03_29_1230.dat,2020-03-29,13:00:00,89.541,1,18000,18000,0.0991,1,-5.489174688,0,-3.919662748,1,0.423173127,1,-0.0873,1,-0.00593,0,0.299797155,-0.263852672,0.0296,-0.00587,0.000101,-9999,-9999,-2.26E-13,-9999,418.3622108,421.0780864,0.7,0,-9999,6.449814554,6.491684716,0.3,1,0.0894,1.998830899,2.011806679,-1.3,0,275.3068394,276.4276409,94045.33819,1.182368645,1008.691249,0.0244,-0.00566,0.00476,606.7376983,770.8087548,0.00402,78.71442747,164.0710565,273.0536562,-0.330972391,-0.880761503,0.00066,0.940895309,-1.36E-14,-2.53E-15,0.940895309,6.496706236,251.5952066,249.4047934,0.0402,-9999,0.289571385,1.460882433,368.9989927,0.00407,1.400420149,-0.0159,0,28.77459569,-4.366655909,9.877387555,24.59609161,37.51059162,52.6091381,78.81807552,0.098,1.011264014,-5.562193935,1.022861371,-3.243227276,1.208568631,0.35014406,1.208568631,-0.0722,1.208568631,-0.00289,1.483324003,800000009,800000009,800000009,800000009,800000009,800110009,899999999,899999999,89999,89999,89,89,9,11,7,39,43,4,0,0,0,0,0,0,0,0,0,18000,18000,0,0,18000,18000,18000,0,1.31339322,1.415571027,0.192800619,0.0124,0.102955088,0.00803,6.56E-08,-0.00466,0.00861,-0.00178,-2.89E-06,0,17.10127259,263.6492942,18.7314352,3.2776409
TOA5_TroutBog_ts_data_2020_03_29_1300.dat,2020-03-29,13:30:00,89.562,1,18000,18000,0.146811401,0,-10.38299278,0,-2.565608809,1,0.346496721,1,-0.0571,1,-0.00641,0,-0.338712646,-0.232994219,0.00444,-0.00519,-2.32E-05,-9999,-9999,6.87E-13,-9999,418.4921042,421.1444819,0.3,1,-9999,6.298023074,6.337939563,1.4,0,0.0895,1.998151684,2.010815849,-0.2,0,274.9077779,276.0874768,94108.43915,1.18468789,1008.602929,0.0244,-0.0037,0.00465,592.856106,752.4620441,0.00393,78.78883867,159.6059382,272.7356697,0.156636751,-1.07707183,0.0782,1.091204299,-3.21E-15,7.67E-15,1.091204299,7.55238362,222.7255785,278.2744215,4.10713381,-9999,0.352028574,1.637363544,350.6480637,0.00428,4.046989839,-0.0247,0,30.57356658,-4.639656682,10.49491605,26.13382487,39.85573187,55.89823065,83.7457355,0.145215391,1.010990642,-10.29240597,1.022794717,-2.119224942,1.210635435,0.286210622,1.210635435,-0.0472,1.210635435,-0.00216,1.48372281,800000009,800000009,800000009,800000009,800000009,800100009,899999999,899999999,89999,89999,89,89,26,15,7,27,12,0,0,0,0,0,0,0,0,0,0,18000,18000,0,0,18000,18000,18000,0,1.43407694,1.59579413,0.244856018,0.0354,0.138921691,0.00517,5.85E-08,-0.00861,0.00703,-0.00116,-2.16E-06,0,17.13305326,257.8481996,19.39994399,2.9374768
TOA5_TroutBog_ts_data_2020_03_29_1330.dat,2020-03-29,14:00:00,89.583,1,18000,18000,0.144394748,0,-3.611884384,0,-3.4711119,0,0.473284697,0,-0.0772,0,-0.00648,0,-0.481376112,-0.110264858,0.00322,-0.00245,-2.76E-05,-9999,-9999,1.08E-13,-9999,418.5859853,421.2086011,0.3,1,-9999,6.226405989,6.265417019,0.3,1,0.0897,1.997346451,2.009860659,0.5,0,274.5012564,275.6052781,94187.46294,1.187789395,1008.556608,0.0243,-0.005,0.00461,586.6066921,727.1168165,0.00388,80.67571521,140.5101244,272.5903558,0.0607,-0.757778151,-0.0062,0.760230191,-1.05E-14,1.21E-15,0.760230191,7.557964804,226.4206649,274.5793351,-0.467143145,-9999,0.348663091,1.371806447,979.9331539,0.00153,1.040555444,-0.00865,0,31.98041369,-4.853151158,10.97784113,27.33637662,41.68969916,58.47039585,87.59930768,0.142724929,1.011699559,-3.701634168,1.022862775,-2.882225176,1.204316696,0.392990231,1.204316696,-0.0641,1.204316696,-0.00377,1.477787771,800000009,800000009,800000009,800000009,800000009,800110009,899999999,899999999,89999,89999,89,89,25,22,8,23,24,0,0,0,0,0,0,0,0,0,0,18000,18000,0,0,18000,18000,18000,0,1.204448706,1.324518598,0.21464559,0.0116,0.156098372,0.00288,3.06E-08,-0.00309,0.00962,-0.00157,-3.77E-06,0,17.19335967,255.7478885,18.18841267,2.4552781
TOA5_TroutBog_ts_data_2020_03_29_1430.dat,2020-03-29,15:00:00,89.624,1,18000,18000,0.06,1,-3.439338662,0,-2.193352759,0,0.244219643,1,-0.0488,0,0.00833,1,-0.179783838,0.0248,-0.0409,0.000552,-0.000492,-9999,-9999,-5.38E-13,-9999,416.6415074,419.2423541,0.5,0,-9999,6.2036832,6.242409129,4,0,0.0889,1.97581808,1.988151945,-0.3,0,274.2643701,275.2183139,94340.72981,1.191405271,1008.538639,0.0243,-0.00316,0.00461,585.4169904,707.3267568,0.00387,82.76471726,121.9097664,272.562537,-0.051,-0.766065104,0.0489,0.769315761,2.64E-14,-6.05E-15,0.769315761,5.88990698,234.8087777,266.1912223,3.643431441,-9999,0.224345865,1.0896432,274.4680572,0.00547,1.568073648,-0.0128,0,23.81042777,-3.613324275,8.173349349,20.35279554,31.03929738,43.53305591,65.22045052,0.0593,1.011827253,-3.470638593,1.023259735,-1.815356188,1.208221711,0.20213148,1.208221711,-0.0404,1.208221711,0.00701,1.486865711,800000009,800000009,800000009,800000009,800000009,800100009,899999999,899999999,89999,89999,89,89,29,21,3,36,8,0,0,0,0,0,0,0,0,0,0,18000,18000,0,0,18000,18000,18000,0,0.801544793,1.191944755,0.185796853,0.00569,0.230826982,0.00275,1.28E-07,-0.00289,0.00493,-0.000985,7.01E-06,0,17.17025337,255.654299,13.92179051,2.0683139
TOA5_TroutBog_ts_data_2020_03_29_1500.dat,2020-03-29,15:30:00,89.645,1,18000,18000,0.129303171,0,-3.155503059,0,-2.69429385,1,0.181155582,1,-0.0599,1,-0.00488,1,-0.248188461,-0.0786,-0.00242,-0.00175,5.92E-05,-9999,-9999,5.46E-13,-9999,416.571118,419.1501184,0.3,1,-9999,6.152927685,6.191020587,0.3,1,0.0891,1.977537842,1.989780819,0.5,0,274.05667,274.970869,94416.0815,1.193452823,1008.507312,0.0242,-0.00388,0.00458,581.0911515,694.9232991,0.00384,83.61946595,113.8321476,272.4609622,-0.123981425,-0.952715991,0.0667,0.963062795,-2.65E-14,6.13E-15,0.963062795,10.34417719,238.4145024,262.5854976,3.972232767,-9999,0.32915614,1.358127326,945.3491922,0.00159,1.171179995,-0.00796,0,30.45380623,-4.621482586,10.45380619,26.03145552,39.69961216,55.67927052,83.41769334,0.127883121,1.011104287,-3.218270527,1.022576359,-2.233394436,1.206367226,0.1501662,1.206367226,-0.0497,1.206367226,-0.00274,1.477542844,800000009,800000009,800000009,800000009,800000009,801100009,899999999,899999999,89999,89999,89,89,22,24,7,54,15,0,0,0,0,0,0,0,0,0,0,18000,18000,0,0,18000,18000,18000,0,1.16965817,1.330414159,0.216182324,0.00352,0.110991252,0.00286,6.18E-08,-0.00267,0.00366,-0.00121,-2.74E-06,0,17.19763259,254.0149094,15.2758835,1.820869
TOA5_TroutBog_ts_data_2020_03_29_1530.dat,2020-03-29,16:00:00,89.666,1,18000,18000,0.0724,1,-5.382362266,1,3.356891631,1,-0.0511,2,0.0746,1,-0.00853,1,-0.0108,-0.161070179,0.0143,-0.00358,0.000126,-9999,-9999,1.45E-13,-9999,416.9856318,419.5233161,0.3,1,-9999,6.048970948,6.085783677,0.3,1,0.0892,1.981190596,1.993247693,0.8,0,274.0682326,274.9601529,94504.22458,1.194660608,1008.45019,0.0242,0.00484,0.00451,571.8066489,694.3905218,0.00377,82.34655154,122.5838729,272.2406711,0.00792,-0.666960241,0.0143,0.667159881,-1.90E-14,1.62E-15,0.667159881,6.661275416,230.3199692,270.6800308,1.225727042,-9999,0.246167385,1.03840535,231.9826237,0.00647,-1.603376831,-0.0181,0,25.97090982,-3.941185762,8.914972925,22.1995431,33.85570394,47.48310616,71.13834558,0.0715,1.012294537,-5.111263047,1.023582892,2.77859201,1.208126857,-0.0423,1.208126857,0.0618,1.208126857,-0.00516,1.488801663,800000009,800000009,800000009,800000009,800000009,800100009,899999999,899999999,89999,89999,89,89,38,30,5,32,23,0,0,0,0,0,0,0,0,0,0,18000,18000,0,0,18000,18000,18000,0,0.967153411,0.929619643,0.180037646,0.00503,0.0219,0.00214,4.95E-08,-0.00424,-0.00103,0.0015,-5.16E-06,0,17.23024523,249.9493389,16.2894045,1.8101529
